[
    [
        {
            "name": "AGM - Ag. Engineering Bldg.",
            "code": "AGM",
            "lat": 43.813304,
            "lon": -111.78314,
            "img": "AGM.jpg",
            "hours": "Monday - Saturday, 6:00 a.m. - 11:30 p.m.",
            "info": "Lab area for Department of Agribusiness, Plant & Animal Science."
        },
        {
            "name": "ASB - Auxiliary Services Bldg.",
            "code": "ASB",
            "lat": 43.8141,
            "lon": -111.783147,
            "img": "ASB.jpg",
            "hours": "Monday - Saturday, 6:00 a.m. - 11:30 p.m.",
            "info": "Division of Continuing Education, University Press, a Copy Spot, the university's central warehouse, purchasing and travel offices."
        },
        {
            "name": "AUS - Mark Austin Technical & Engineering Bldg.",
            "code": "AUS",
            "lat": 43.815756,
            "lon": -111.784646,
            "img": "AUS.jpg",
            "hours": "Monday - Saturday, 6:00 a.m. - 11:30 p.m.",
            "info": "Department of Architecture & Construction, Department of Automotive Technology, Department of Computer Science and Engineering, and Department of Mechanical Engineering."
        },
        {
            "name": "BCTR - BYU-Idaho Center",
            "code": "BCTR",
            "lat": 43.818514,
            "lon": -111.785046,
            "img": "BCTR.jpg",
            "hours": "Monday - Saturday, 5:00 a.m. - 11:30 p.m.",
            "info": "The 435,000-square-foot building, containing a 15,000-seat auditorium and a multi-purpose area large enough for 10 full basketball courts, opened following a dedication on Dec. 17, 2010.",
            "link": "http://www2.byui.edu/BYUIdahoCenter/"
        },
        {
            "name": "BEN - Ezra Taft Benson Agricultural & Biological Sciences Bldg.",
            "code": "BEN",
            "lat": 43.815441,
            "lon": -111.783076,
            "img": "BEN.jpg",
            "hours": "Monday - Saturday, 6:00 a.m. - 11:30 p.m.",
            "info": "Department of Biology, Department of Horticulture, laboratories, greenhouses, horticulture outlet for studio flowers and plant sales, and the Wildlife Museum."
        },
        {
            "name": "BID - Biddulph Hall",
            "code": "BID",
            "lat": 43.817054,
            "lon": -111.785123,
            "img": "BID.jpg",
            "info": "Univerisy Communications Offices. Online Learning Offices."
        },
        {
            "name": "BRN - Barnes Hall (women)",
            "code": "BRN",
            "lat": 43.819171,
            "lon": -111.778768,
            "img": "BRN.jpg",
            "info": "Women's housing."
        },
        {
            "name": "CHP - Chapman Hall (men)",
            "code": "CHP",
            "lat": 43.818202,
            "lon": -111.780259,
            "img": "CHP.jpg",
            "info": "Men's housing."
        },
        {
            "name": "CLK - John L. Clarke Bldg.",
            "code": "CLK",
            "lat": 43.820179,
            "lon": -111.781751,
            "img": "CLK.jpg",
            "hours": "Monday - Saturday, 6:00 a.m. - 11:30 p.m.",
            "info": "Department of Health Science, Department of Interior Design, Department of Nursing, Department of Home and Family, preschool for the child development program."
        },
        {
            "name": "CML - Construction Management Lab",
            "code": "CML",
            "lat": 43.815239,
            "lon": -111.787772,
            "info": "Lab area for Department of Department of Architecture and Construction.",
            "hours": "Monday - Saturday, 6:00 a.m. - 11:30 p.m."
        },
        {
            "name": "HIN - Gordon B. Hinckley Bldg.",
            "code": "HIN",
            "lat": 43.815841,
            "lon": -111.7799,
            "img": "HIN.jpg",
            "hours": "Monday - Saturday, 6:00 a.m. - 11:30 p.m.",
            "info": "Department of Teacher Education, faculty offices, Institute classes, and a stake center."
        },
        {
            "name": "HRT - John W. Hart Physical Education Bldg.",
            "code": "HRT",
            "lat": 43.819535,
            "lon": -111.785311,
            "img": "HRT.jpg",
            "hours": "Monday - Saturday, 5:00 a.m. - 11:30 p.m.",
            "info": "Department of Exercise & Sports Science, Main Gymnasium/Hart Auditorium, Auxiliary Gym, field house, swimming pool, racquetball courts, dressing rooms, physical fitness and wellness centers.",
            "link": "http://www2.byui.edu/HartBuilding/"
        },
        {
            "name": "HTG - Heating Plant",
            "code": "HTG",
            "lat": 43.817298,
            "lon": -111.786003,
            "img": "HTG.jpg",
            "hours": "Monday - Saturday, 6:00 a.m. - 11:30 p.m.",
            "info": "BYU-Idaho support facility for heating and hot water."
        },
        {
            "name": "KER - Kerr Hall (women)",
            "code": "KER",
            "lat": 43.819258,
            "lon": -111.779575,
            "img": "KER.jpg",
            "info": "Women's housing."
        },
        {
            "name": "KIM - Spencer W. Kimball Student & Admin. Services Bldg.",
            "code": "KIM",
            "lat": 43.817071,
            "lon": -111.781492,
            "img": "KIM.jpg",
            "hours": "Monday - Saturday, 6:00 a.m. - 11:30 p.m.",
            "info": "Academic Administrative Services, Accounting Office, Admissions Office, Alumni Office, Career & Academic Advising, Cashier and Ticket Services, Dean of Students Office, Executive Offices, Financial Services, Housing Office, Human Resources, International Services, Internship and Career Services, Police, Registrar & Records Office."
        },
        {
            "name": "KRK - Oscar A. Kirkham Bldg.",
            "code": "KRK",
            "lat": 43.821114,
            "lon": -111.781479,
            "img": "KRK.jpg",
            "hours": "Monday - Saturday, 6:00 a.m. - 11:30 p.m.",
            "info": "Department of Dance, Kirkham Auditorium, Arena Theater, and ceramics and sculpture studios."
        },
        {
            "name": "LAM - Lamprecht Hall",
            "code": "LAM",
            "lat": 43.818234,
            "lon": -111.779517,
            "img": "LAM.jpg",
            "info": "Women's housing."
        },
        {
            "name": "MC  - Hyrum Manwaring Student Center",
            "code": "MC",
            "lat": 43.818356,
            "lon": -111.782436,
            "img": "MC.jpg",
            "hours": "Monday - Saturday, 6:00 a.m. - 11:30 p.m.",
            "info": "Bookstore, Food Services and catering office, bowling alley, ballrooms, the ID Center, Lost and Found, and Scheduling Office."
        },
        {
            "name": "MCK - David O. McKay Library",
            "code": "MCK",
            "lat": 43.81931,
            "lon": -111.783182,
            "img": "MCK.jpg",
            "hours": "Monday - Saturday, 6:00 a.m. - 11:30 p.m.",
            "info": "Department of Academic Learning, book collection, e-book collection, periodicals, computers labs, Family History Center,  archives, a Copy Spot, a special exhibition area, instructional technology labs, equipment checkout and rental, and a self-serve recording room.",
            "link": "http://www.lib.byui.edu/"
        },
        {
            "name": "PER - Perkins Hall (women)",
            "code": "PER",
            "lat": 43.819253,
            "lon": -111.780264,
            "img": "PER.jpg",
            "info": "Women's housing."
        },
        {
            "name": "PPG - Physical Plant Grounds Construction & Sign Shop",
            "code": "PPG",
            "lat": 43.815277,
            "lon": -111.786379,
            "img": "PPG.jpg",
            "hours": "Monday - Saturday, 6:00 a.m. - 11:30 p.m.",
            "info": "BYU-Idaho support facility for landscaping, ground maintenance and signage."
        },
        {
            "name": "PPO - Physical Plant Office Bldg.",
            "code": "PPO",
            "img": "PPO.jpg",
            "lat": 43.816114,
            "lon": -111.785559,
            "info": "Physical Facilities Office and administrative offices for buildings and grounds, custodial, media services, telecommunications, safety, and support services."
        },
        {
            "name": "PPS - Physical Plant Shop Bldg.",
            "code": "PPS",
            "lat": 43.81594597634651,
            "lon": -111.7859443479993,
            "img": "PPS.jpg",
            "hours": "Monday - Saturday, 6:00 a.m. - 11:30 p.m.",
            "info": "Central shops for carpentry; electrical; fleet services; heating, ventilation, and air conditioning; locks and keys; and plumbing and mechanical operations."
        },
        {
            "name": "PWS - Plumbing & Welding Shop",
            "code": "PWS",
            "lat": 43.81526579736887,
            "lon": -111.7853107728127,
            "hours": "Monday - Saturday, 6:00 a.m. - 11:30 p.m.",
            "info": "Central shop for plumbing and welding services."
        },
        {
            "name": "Rexburg Temple",
            "code": "RexburgTemple",
            "lat": 43.810832416805,
            "lon": -111.7784921749187,
            "img": "Rexburg-Temple.jpg",
            "info": "Owned and operated by The Church of Jesus Christ of Latter-day Saints.",
            "link": "http://www.lds.org/church/temples/rexburg-idaho?lang=eng"
        },
        {
            "name": "RGS - Radio and Graphic Services Bldg.",
            "code": "RGS",
            "lat": 43.817248,
            "lon": -111.7794,
            "img": "RGS.jpg",
            "info": "University Communications, KBYI FM 100.5, KBYR 91.5, Creative Services (graphic design and photography)."
        },
        {
            "name": "RIC - Ricks Hall (women)",
            "code": "RIC",
            "lat": 43.81812607978744,
            "lon": -111.778914594058,
            "img": "RIC.jpg",
            "info": "Women's housing."
        },
        {
            "name": "RIG - Rigby Hall (faculty offices)",
            "code": "RIG",
            "lat": 43.81696924342953,
            "lon": -111.7841900066221,
            "img": "RIG.jpg",
            "hours": "Monday - Saturday, 6:00 a.m. - 11:30 p.m.",
            "info": "Faculty offices, Student Orientation Office."
        },
        {
            "name": "RKS - Thomas E. Ricks Bldg.",
            "code": "RKS",
            "lat": 43.81514466531412,
            "lon": -111.7812015011548,
            "img": "RKS.jpg",
            "hours": "Monday - Saturday, 6:00 a.m. - 11:30 p.m.",
            "info": "Department of History, Geography and Political Science; Department of Mathematics; Department of Psychology; and Department of Sociology and Social Work."
        },
        {
            "name": "ROM - George S. Romney Bldg.",
            "code": "ROM",
            "lat": 43.819988,
            "lon": -111.783261,
            "img": "ROM.jpg",
            "hours": "Monday - Saturday, 6:00 a.m. - 11:30 p.m.",
            "info": "Department of Chemistry, Department of Geology, Department of Recreation Leadership, Department of Physics, the planetarium, hall displays, and the Geology Museum."
        },
        {
            "name": "SHC - Student Health & Counseling Center",
            "code": "SHC",
            "lat": 43.81681618820919,
            "lon": -111.7792542421602,
            "img": "SHC.jpg",
            "hours": "Monday - Saturday, 6:00 a.m. - 11:30 p.m.",
            "info": "Student Health Center (pharmacy, laboratory, x-ray and orthopedic services), Student Counseling Center (individual, group, and marital counseling).",
            "link": "http://www.byui.edu/health-center"
        },
        {
            "name": "SMI - Joseph Fielding Smith Bldg.",
            "code": "SMI",
            "lat": 43.81920193746524,
            "lon": -111.7815120835109,
            "img": "SMI.jpg",
            "hours": "Monday - Saturday, 6:00 a.m. - 11:30 p.m.",
            "info": "Department of Accounting, Department of Business Management, Department of Economics, Department of Computer Information Technology, Department of Foreign Languages & Literatures, Online Testing Center."
        },
        {
            "name": "SNO - Eliza R. Snow Performing Arts Center",
            "code": "SNO",
            "lat": 43.821094,
            "lon": -111.78358,
            "img": "SNO.jpg",
            "hours": "Monday - Saturday, 6:00 a.m. - 11:30 p.m.",
            "info": "Department of Music, Department of Theatre, Barrus Concert Hall, Recital Hall, Snow Drama Theater, Blackbox Theatre, and costume shop.",
            "link": "http://www2.byui.edu/music/"
        },
        {
            "name": "SPO - Jacob Spori Bldg.",
            "code": "SPO",
            "lat": 43.820767,
            "lon": -111.782499,
            "img": "SPO.jpg",
            "hours": "Monday - Saturday, 6:00 a.m. - 11:30 p.m.",
            "info": "Department of Communication, Department of Art, art galleries, and artifacts from original Spori Building."
        },
        {
            "name": "STA - BYU-Idaho Stadium",
            "code": "STA",
            "lat": 43.820806,
            "lon": -111.786127,
            "img": "STA.jpg",
            "info": "Location of the Outdoor Resource Center. Equipment rentals and retail sales."
        },
        {
            "name": "TAY - John Taylor Bldg.",
            "code": "TAY",
            "img": "TAY.jpg",
            "hours": "Monday - Saturday, 6:00 a.m. - 11:30 p.m.",
            "lat": 43.816868,
            "lon": -111.782552,
            "info": "Department of Religious Education, Department of Humanities & Philosophy, campus stake center, student commons area."
        },
        {
            "name": "TRG - Thomas E. Ricks Memorial Gardens",
            "code": "TRG",
            "lat": 43.81582205080509,
            "lon": -111.7815419421354,
            "img": "TRG.jpg",
            "info": "A horticulture research area, picnic structure, reception area, test gardens, fruit tree orchard, flowerbeds, and a native garden."
        },
        {
            "name": "TRK - BYU-I Track & Field",
            "code": "TRK",
            "lat": 43.820805,
            "lon": -111.785301,
            "img": "BYU-Idaho-Track.jpg",
            "info": ""
        },
        {
            "name": "University Stake Center",
            "code": "UniversityStakeCenter",
            "lat": 43.81091259491949,
            "lon": -111.7810747356341,
            "info": "Meetinghouse for The Church of Jesus Christ of Latter-day Saints."
        },
        {
            "name": "UV  - University Village (families)",
            "code": "UV",
            "img": "University-Village.jpg",
            "lat": 43.81043018645631,
            "lon": -111.7880177484073,
            "info": "Family housing."
        },
        {
            "name": "VOS - Vehicle Operations Service Station",
            "code": "VOS",
            "lat": 43.81528245659366,
            "lon": -111.7859468775369,
            "info": "Support area for the university's fleet services."
        }
    ],
    [
        {
            "name": "V - Visitor",
            "code": "V",
            "contains": "Those without any parking permits may park in the areas shown for the durations posted",
            "borderColor": "green",
            "fillColor": "#fff",
            "map": "http://www2.byui.edu/map/data/parking/v.xml"
        },
        {
            "name": "A - Faculty & Staff",
            "code": "A",
            "contains": "Faculty & Staff with 'A' Permit may park in the areas shown",
            "borderColor": "#9b100c",
            "fillColor": "#eb1c23",
            "map": "http://www2.byui.edu/map/data/parking/a.xml"
        },
        {
            "name": "N - North Zone",
            "code": "N",
            "contains": "Those with 'N' North Zone Permit may park in the areas shown",
            "borderColor": "#1371bb",
            "fillColor": "#63a3d3",
            "map": "http://www2.byui.edu/map/data/parking/n.xml"
        },
        {
            "name": "S - South Zone",
            "code": "S",
            "contains": "Those with 'S' South Zone Permit may park in the areas shown",
            "borderColor": "#fbe72b",
            "fillColor": "#fff000",
            "map": "http://www2.byui.edu/map/data/parking/s.xml"
        },
        {
            "name": "C - 4th Ward Meetinghouse",
            "code": "C",
            "contains": "Those with 'C' 4th Ward Meetinghouse Permit may park in the areas shown",
            "borderColor": "#fdb445",
            "fillColor": "#f6921e",
            "map": "http://www2.byui.edu/map/data/parking/c.xml"
        },
        {
            "name": "H - On-Campus Housing",
            "code": "H",
            "contains": "Those with 'H' On Campus Housing Permit may park in the areas shown",
            "borderColor": "#333333",
            "fillColor": "#8ac53e",
            "map": "http://www2.byui.edu/map/data/parking/h.xml"
        },
        {
            "name": "L - Long Term & Overnight",
            "code": "L",
            "contains": "Those with 'L' Long Term & Overnight Permit may park in the areas shown",
            "borderColor": "#333333",
            "fillColor": "#a7308f",
            "map": "http://www2.byui.edu/map/data/parking/l.xml"
        },
        {
            "name": "F - Free Permit Lot",
            "code": "F",
            "contains": "Those with 'L' Long Term & Overnight Permit may park in the areas shown",
            "borderColor": "#333333",
            "fillColor": "#c3996b",
            "map": "http://www2.byui.edu/map/data/parking/f.xml"
        },
        {
            "name": "City R - City Street Parking",
            "code": "CR",
            "contains": "City Resident Street Parking City R Permit Required. The City provides two permits per household to residents living on the streets zoned City R. Students living on these streets should consult with their landlord to determine if the access to these permits is available.",
            "borderColor": "#2dbb9c",
            "fillColor": "#36eac3",
            "map": "http://www2.byui.edu/map/data/parking/cr.xml"
        },
        {
            "name": "City U - City Street Parking",
            "code": "CU",
            "contains": "City U permit Required. Parking on city streets requires a permit from the City of Rexburg. Information about city parking permits can be obtained by contacting City of Rexburg at: 208-359-3020 ext. 8000",
            "borderColor": "#ff239f",
            "fillColor": "#f869bc",
            "map": "http://www2.byui.edu/map/data/parking/cu.xml"
        }
    ],
    [
        {
            "name": "Café Kimball",
            "code": "CAFEKIMBALL",
            "lat": 43.81663558951467,
            "lon": -111.7814087838211,
            "img": "Cafe-Kimball.jpg",
            "info": "1st Floor of the Kimball building on the South end of the commons. <br/><br/><strong>Hours of Operation:</strong> <br/>Monday through Friday: 10:00 a.m. - 1:30 p.m.",
            "link": "http://www.byui.edu/food-services/locations-and-hours/cafe-kimball"
        },
        {
            "name": "Café McKay",
            "code": "CAFEMCKAY",
            "lat": 43.81909299926238,
            "lon": -111.7830128352975,
            "img": "CafeMcKay.jpg",
            "info": "1st Floor of the McKay Library.<br/><br/><strong>Hours of Operation:</strong> <br/>Monday through Friday: 8:30 a.m. - 3:15 p.m.<br/>*Closed Tuesdays for devotional at 1:45 p.m.",
            "link": "http://www.byui.edu/food-services/locations-and-hours/cafe-mckay"
        },
        {
            "name": "Caliente",
            "code": "CALIENTE",
            "img": "caliente.jpg",
            "lat": 43.81852167946543,
            "lon": -111.7824973903352,
            "info": "Located on the 2nd floor of the MC.<br/><br/><strong>Hours of Operation:</strong><br/>Monday through Friday: 11:00 a.m. - 6:00 p.m.<br/>*Closed for devotional from 2:00 p.m. to 3:00 p.m. every Tuesday.",
            "link": "http://www.byui.edu/food-services/locations-and-hours/caliente"
        },
        {
            "name": "Chef's Point",
            "code": "CHEFSPOINT",
            "lat": 43.81857137498275,
            "lon": -111.7824269019565,
            "img": "Chefs-Point.jpg",
            "info": "Located on the 2nd floor of the MC.<br/><strong>Hours of Operation:</strong><br/>Monday through Saturday: 11:00 a.m. - 2:00 p.m. and 4:00 p.m. - 6:00 p.m",
            "link": "http://www.byui.edu/food-services/locations-and-hours/chefs-point"
        },
        {
            "name": "Far East Fusion",
            "code": "FAREASTFUSION",
            "lat": 43.81854131350695,
            "lon": -111.7824559091124,
            "img": "Far-east-fusion.jpg",
            "info": "Located on the 2nd floor of the MC. <br/><br/><strong>Hours of Operation:</strong> <br/>Monday through Friday: 11:00 a.m. - 6:00 p.m. <br/>*Closed for devotional from 2:00 p.m. to 3:00 p.m. every Tuesday.",
            "link": "http://www.byui.edu/food-services/locations-and-hours/far-east-fusion"
        },
        {
            "name": "Freshëns",
            "code": "FRESHENS",
            "lat": 43.81857636264045,
            "lon": -111.7826563925517,
            "img": "Freshens.jpg",
            "info": "<strong>About Freshëns:</strong> <br/>Freshëns sells smoothies, frozen treats, doughnuts, bagels, muffins, cookies and more! <br/>Located on the 1st floor of the MC <br/><br/><strong>Hours of Operation</strong> <br/>7:00 a.m.-6:00 p.m., Monday-Friday",
            "link": "http://www.byui.edu/food-services/locations-and-hours/freshens"
        },
        {
            "name": "Garden View Café",
            "code": "GARDENVIEWCAFE",
            "lat": 43.815024,
            "lon": -111.78093,
            "info": "Located on the 1st floor of the Ricks Building <br/><br/><strong>Hours of Operation:</strong><br/>Monday through Friday: 8:30 a.m. - 2:30 p.m.<br/>*Closes for Devotional at 2:00 p.m. every Tuesday.",
            "link": "http://www.byui.edu/food-services/locations-and-hours/garden-view-cafe"
        },
        {
            "name": "Grand Teton Grill",
            "code": "GRANDTETONGRILL",
            "img": "Teton-Grill.jpg",
            "lat": 43.81862574632019,
            "lon": -111.7824118292022,
            "info": "Located on the 2nd floor of the MC<br/><br/><strong>Hours of Operation: </strong><br/>Monday through Friday: 8:30 a.m. - 6:00 p.m., Saturday:  11:00 a.m. - 6:00 p.m.<br/>*Closed for Devotional from 2:00 p.m. to 3:00 p.m. every Tuesday.",
            "link": "http://www.byui.edu/food-services/locations-and-hours/grand-teton-grill"
        },
        {
            "name": "Harvest Hills Bakery",
            "code": "HARVESTHILLSBAKERY",
            "lat": 43.81851277918786,
            "lon": -111.7826159175001,
            "img": "Harvest-Hill-Bakery.jpg",
            "info": "Located on the 2nd  floor of the MC<br/><br/><strong>Hours of Operation</strong><br/>Monday through Friday: 8:30 a.m. - 2:00 p.m.<br/>*Closed for Devotional from 2:00 p.m. to 3:00 p.m. every Tuesday.",
            "link": "http://www.byui.edu/food-services/locations-and-hours/harvest-hills-bakery"
        },
        {
            "name": "Henry's Fork BBQ",
            "code": "HENRYSFORKBBQ",
            "lat": 43.81853149418591,
            "lon": -111.7825524476314,
            "info": "Stacks and wraps food, located on the 2nd floor of the MC<br/><br/><strong>Hours of Operation:</strong><br/>Monday through Friday: 11:00 a.m. - 2:00 p.m.<br/>*Closed for devotional from 2:00 p.m. to 3:00 p.m. every Tuesday.",
            "link": "http://www.byui.edu/food-services/locations-and-hours/henrys-fork-bbq"
        },
        {
            "name": "MC Market",
            "code": "MCMARKET",
            "img": "McMarket.jpg",
            "lat": 43.81861464827622,
            "lon": -111.7826526017039,
            "info": "Located on the 1st floor of the MC<br/><br/><strong>Hours of Operation:</strong><br/>Monday-Friday: 9:00 am - 7:00 pm<br/>Saturdays: 10:00 am - 7:00pm<br/>(Closed for Devotional on Tuesdays)<br/>Sunday: Closed",
            "link": "http://www.byui.edu/food-services/locations-and-hours/mc-market"
        },
        {
            "name": "Salad Bar",
            "code": "SALADBAR",
            "img": "Salad.jpg",
            "lat": 43.81863461978169,
            "lon": -111.7824785411088,
            "info": "Located on the 2nd  floor of the MC<br/><br/><strong>Hours of Operation:</strong><br/>Monday through Friday: 11:00 a.m. - 6:00 p.m.<br/>*Closed for Devotional from 2:00 p.m. to 3:00 p.m. every Tuesday.",
            "link": "http://www.byui.edu/food-services/locations-and-hours/salad-bar"
        },
        {
            "name": "Stacks and Wraps",
            "code": "STACKSANDWRAPS",
            "img": "Stacks-and-Wraps.jpg",
            "lat": 43.81865148142322,
            "lon": -111.7824055117548,
            "info": "Located on the 2nd  floor of the MC<br/><br/><strong>Hours of Operation</strong><br/>Monday through Saturday: 11:00 a.m. - 6:00 p.m.<br/>*Closed for Devotional from 2:00 p.m. to 3:00 p.m. every Tuesday.",
            "link": "http://www.byui.edu/food-services/locations-and-hours/stacks-and-wraps"
        },
        {
            "name": "Tuscan Valley",
            "code": "TUSCANVALLEY",
            "lat": 43.81868128717473,
            "lon": -111.7823956951955,
            "img": "Tuscan-Valley.jpg",
            "info": "Located on the 2nd  floor of the MC<br/><br/><strong>Hours of Operation:</strong>Monday through Friday: 10:30 a.m. - 6:00 p.m.<br/>*Closed for Devotional from 2:00 p.m. to 3:00 p.m. every Tuesday.",
            "link": "http://www.byui.edu/food-services/locations-and-hours/tuscan-valley"
        }
    ],
    [
        {
            "name": "AGB (snacks)",
            "code": "VENDING-AGB",
            "lat": 43.81306032643038,
            "lon": -111.7833001800025,
            "info": "Main floor lobby area.<br/>Two snack machines."
        },
        {
            "name": "BCTR (food, snacks)",
            "code": "VENDING-BCTR",
            "lat": 43.81801134364651,
            "lon": -111.7848386836669,
            "info": "1st floor (court level), side room."
        },
        {
            "name": "BEN (Snacks)",
            "code": "VENDING-BEN",
            "lat": 43.815478,
            "lon": -111.783254,
            "info": "First floor hallway, near the central stairs."
        },
        {
            "name": "BID (food, drinks, snacks)",
            "code": "VENDING-BID",
            "lat": 43.81708528609551,
            "lon": -111.7851676792425,
            "info": "1st floor lounge."
        },
        {
            "name": "BRN (Combo)",
            "code": "VENDING-BRN",
            "lat": 43.81903274177699,
            "lon": -111.778850821976,
            "info": "2nd floor lounge, above laundry room."
        },
        {
            "name": "CHP (food, drinks, snacks)",
            "code": "VENDING-CHP",
            "lat": 43.81800009170572,
            "lon": -111.7803323290123,
            "info": "1st floor laundry room."
        },
        {
            "name": "CLK (food, drinks, snacks)",
            "code": "VENDING-CLK",
            "lat": 43.820303,
            "lon": -111.781949,
            "info": "1st floor entryway."
        },
        {
            "name": "HIN (food, snacks)",
            "code": "VENDING-HIN",
            "lat": 43.81611,
            "lon": -111.779708,
            "info": "2nd floor, gym level, adjoining North-East entryway."
        },
        {
            "name": "HRT (food)",
            "code": "VENDING-HRT",
            "lat": 43.81946877697342,
            "lon": -111.7850283205154,
            "info": "2nd floor, at crossing of two highways."
        },
        {
            "name": "KER (Combo)",
            "code": "VENDING-KER",
            "lat": 43.81907857414526,
            "lon": -111.77954226089,
            "info": "1st floor laundry room."
        },
        {
            "name": "KIM (food, drinks, snacks)",
            "code": "VENDING-KIM",
            "lat": 43.81693401824815,
            "lon": -111.7813540546474,
            "info": "1st floor entryway."
        },
        {
            "name": "KRK (Snacks)",
            "code": "VENDING-KRK",
            "lat": 43.820973,
            "lon": -111.781728,
            "info": "2nd floor, ticketing lobby."
        },
        {
            "name": "LAM (Combo)",
            "code": "VENDING-LAM",
            "lat": 43.81803886557335,
            "lon": -111.7795172461913,
            "info": "1st floor laundry room."
        },
        {
            "name": "MC (food, drinks, snacks)",
            "code": "VENDING-MC",
            "lat": 43.81821004565384,
            "lon": -111.7828223737763,
            "info": "1st floor lounge."
        },
        {
            "name": "MCK (food, snacks)",
            "code": "VENDING-MCK",
            "lat": 43.819066,
            "lon": -111.783145,
            "info": "1st floor lobby."
        },
        {
            "name": "PER (Combo)",
            "code": "VENDING-PER",
            "lat": 43.81906110267827,
            "lon": -111.7803649885445,
            "info": "1st floor laundry room."
        },
        {
            "name": "RIC (food, drinks, snacks, combo, frozen)",
            "code": "VENDING-RIC",
            "lat": 43.81794189084471,
            "lon": -111.7788253793899,
            "info": "1st floor laundry room."
        },
        {
            "name": "RIG (food, snacks)",
            "code": "VENDING-RIG",
            "lat": 43.81696482697952,
            "lon": -111.7844262965071,
            "info": "1st floor lounge"
        },
        {
            "name": "ROM (food, snacks)",
            "code": "VENDING-ROM",
            "lat": 43.82000767445552,
            "lon": -111.7832005928064,
            "info": "Stairway landing between 1st and 2nd floors."
        },
        {
            "name": "SMI (food, snacks)",
            "code": "VENDING-SMI",
            "lat": 43.8192314306082,
            "lon": -111.7816695208319,
            "info": "Entryway landing between 1st and 2nd floors."
        },
        {
            "name": "SPO (food, snacks)",
            "code": "VENDING-SPO",
            "lat": 43.82083022215371,
            "lon": -111.7823424255988,
            "info": "2nd floor hallway."
        },
        {
            "name": "TAY (food, snacks)",
            "code": "VENDING-TAY",
            "lat": 43.81672922830764,
            "lon": -111.7823378735806,
            "info": "1st floor, off of hallway and commons."
        }
    ],
    [
        {
            "name": "4 Plex - Field 1",
            "code": "PLAYFIELD-1",
            "lat": 43.81054127708088,
            "lon": -111.7846084967424,
            "img": "4plex1-2Fields.jpg",
            "info": "7th South Activity Fields<br/>Artificial field turf. Muti-use full soccer and softball field. Recreational area often scheduled for Student Activities."
        },
        {
            "name": "4 Plex - Field 2",
            "code": "PLAYFIELD-2",
            "lat": 43.80933478831204,
            "lon": -111.7846834569128,
            "img": "4plex1-2Fields.jpg",
            "info": "7th South Activity Fields<br/>Artificial field turf. Muti-use full soccer and softball field. Recreational area often scheduled for Student Activities."
        },
        {
            "name": "4 Plex - Field 3",
            "code": "PLAYFIELD-3",
            "lat": 43.81071798665069,
            "lon": -111.7858519476696,
            "img": "4Plex3-4Fields.jpg",
            "info": "7th South Activity Fields <br/>Grass muti-use fields. Recreational area often scheduled for Student Activities."
        },
        {
            "name": "4 Plex - Field 4",
            "code": "PLAYFIELD-4",
            "lat": 43.81003608579535,
            "lon": -111.7862319352064,
            "img": "4Plex3-4Fields.jpg",
            "info": "7th South Activity Fields<br/>Grass muti-use fields. Recreational area often scheduled for Student Activities."
        },
        {
            "name": "Bowling Center",
            "code": "PLAYFIELD-BOWLING",
            "lat": 43.81823134565679,
            "lon": -111.7822454340857,
            "img": "Bowling.jpg",
            "info": "Bottom floor of the Manwaring Center<br/><br/><strong>Bowling Center Hours:</strong><br/>Monday-Saturday 1:00p.m.-10:30p.m.<br/>Have any questions, please call us at 496-7460."
        },
        {
            "name": "BYU-I Center Courts",
            "code": "PLAYFIELD-ICENTER",
            "lat": 43.81841703577014,
            "lon": -111.7844832223163,
            "img": "BYU-I-center-courts-.jpg",
            "info": "The 435,000-square-foot building, containing a 15,000-seat auditorium and a multi-purpose area large enough for 10 full indoor basketball and volleyball courts. Indoor full running and walking track."
        },
        {
            "name": "Hart Auxiliary Gym",
            "code": "PLAYFIELD-HARTAUX",
            "lat": 43.81955263347049,
            "lon": -111.7844997879188,
            "img": "Hart-Aux-Gym.jpg",
            "info": "<strong>The Hart Building Hours:</strong><br/>Monday - Saturday<br/>5:00 AM to 11:30 PM<br/>Closed during Devotional"
        },
        {
            "name": "Hart Fitness Center",
            "code": "PLAYFIELD-HARTFITNESS",
            "lat": 43.81955907356128,
            "lon": -111.7861131438963,
            "img": "Fitness-Center.jpg",
            "info": "<strong>Hours of operation:</strong><br/>Monday - Saturday<br/>5:00 a.m. - 11:45 p.m.<br/>Phone number 496-7490<br/><br/>The Fitness Center, located in the Hart building, is a state of the art facility. It is equipped with both cardiovascular and strength training equipment. Our cardiovascular equipment includes treadmills, elliptical trainers, stair steppers and cycling/spinning bikes.  We have for your convenience, weight machines and free weights to accommodate all your strength training needs."
        },
        {
            "name": "Hart Main Gym",
            "code": "PLAYFIELD-MAIN",
            "lat": 43.81953783834503,
            "lon": -111.7854134929677,
            "img": "Hart-Main-Gym.jpg",
            "info": "<strong>The Hart Building Hours:</strong><br/>Monday - Saturday<br/>5:00 AM to 11:30 PM<br/>Closed during Devotional<br/><br/>The John W. Hart building is BYU-Idaho&apos;s center for physical education and fitness. It is home to the Department of Physical Education, the Physical Activities arm of the Activities Program, the Wellness Center, and other facilities of physical fitness. The building contains the Hart Auditorium, a 3,741 seat arena for sports and performing events (can hold up to 4,900 depending on the event and seating configuration), as well as campus ecclesiastical and academic gatherings. The Hart also houses a 25 yard swimming pool, fully equipped weight training and aerobic fitness areas, a field house, three basketball courts including one full size court in the Hart Auditorium, and raquetball courts. Both men&apos;s and women&apos;s locker rooms are available with clothing and lockers available for rental. The Hart Building is primarily for the use of currently enrolled BYU-Idaho students and BYU-Idaho employees, but members of the community and other guests can obtain limited use passes to use the Hart facilities."
        },
        {
            "name": "Racquetball Courts",
            "code": "PLAYFIELD-RACQUETBALL",
            "lat": 43.81927662896208,
            "lon": -111.7861592748414,
            "img": "Racquetball.jpg",
            "info": "<strong>The Hart Building Hours:</strong><br/>Monday - Saturday<br/>5:00 AM to 11:30 PM<br/>Closed during Devotional"
        },
        {
            "name": "Stadium Track and Field",
            "code": "PLAYFIELD-STADIUM",
            "lat": 43.82096963524247,
            "lon": -111.7852831224419,
            "img": "BYU-IdahoTrack.jpg",
            "info": "Artificial field turf muti-use full track, football and soccer field. Recreational area often scheduled for Student Activities."
        },
        {
            "name": "Swimming Pool",
            "code": "PLAYFIELD-SWIMMING",
            "lat": 43.81928888888889,
            "lon": -111.7846573564554,
            "img": "Swimming.jpg",
            "info": "25 yard swimming pool.<br/><br/><strong>Pool Schedule:</strong><br/><a target='_blank' href='http://www.byui.edu/activities/resources/exercise-facilities-and-play-fields/hart-building/pool'>http://www.byui.edu/activities/resources/exercise-facilities-and-play-fields/hart-building/pool</a><br/><strong>Pool Rules:</strong><br/><a target='_blank' href='http://www.byui.edu/activities/resources/exercise-facilities-and-play-fields/hart-building/pool/pool-rules'>http://www.byui.edu/activities/resources/exercise-facilities-and-play-fields/hart-building/pool/pool-rules</a><br/><strong>Swim Suit Policy:</strong><br/><a target='_blank' href='http://www.byui.edu/activities/resources/exercise-facilities-and-play-fields/hart-building/swim-suit-policy'>http://www.byui.edu/activities/resources/exercise-facilities-and-play-fields/hart-building/swim-suit-policy</a>"
        },
        {
            "name": "Tennis Courts - West",
            "code": "PLAYFIELD-WESTTENNIS",
            "lat": 43.81936445832934,
            "lon": -111.7871018896488,
            "img": "Tennis-Courts-West.jpg",
            "info": "Recreational area often scheduled for Student Activities.<"
        },
        {
            "name": "Tennis Courts - East",
            "code": "PLAYFIELD-EASTTENNIS",
            "lat": 43.81712830137598,
            "lon": -111.7786622733956,
            "img": "Tennis-Courts-East.jpg",
            "info": "Recreational area often scheduled for Student Activities."
        },
        {
            "name": "Upper Playfields - North",
            "code": "PLAYFIELD-NORTHUPPER",
            "lat": 43.81281083420959,
            "lon": -111.7854493760957,
            "img": "UpperFields.jpg",
            "info": "Grass fields used for flag football and ultimate frisbee. Recreational area often scheduled for Student Activities."
        },
        {
            "name": "Upper Playfields - Middle",
            "code": "PLAYFIELD-MIDDLEUPPER",
            "lat": 43.81245500730314,
            "lon": -111.7854668088413,
            "img": "UpperFields.jpg",
            "info": "Grass fields used for flag football and ultimate frisbee. Recreational area often scheduled for Student Activities."
        },
        {
            "name": "Upper Playfields - South",
            "code": "PLAYFIELD-SOUTHUPPER",
            "lat": 43.81204689742254,
            "lon": -111.785439936203,
            "img": "UpperFields.jpg",
            "info": "Grass fields used for flag football and ultimate frisbee. Recreational area often scheduled for Student Activities."
        }
    ],
    [
        {
            "name": "BYU-Idaho Center",
            "code": "BYUIDAHOCENTER",
            "lat": 43.81741576205961,
            "lon": -111.786048011045,
            "img": "http://www2.byui.edu/images/aud2.asp",
            "info": "The BYU-Idaho Center as viewed from the top of the Heating Plant. The auditorium holds approximately 15,000 students, and houses a multi-use area the size of 10 basketball courts.",
            "link": "http://www.byui.edu/web-cameras/byu-idaho-center"
        },
        {
            "name": "Copy Spot",
            "code": "COPYSPOT",
            "lat": 43.81864892940105,
            "lon": -111.7827926535226,
            "img": "http://www2.byui.edu/images/copyspot.asp",
            "info": "The Copy Spot is a place to print, bind, laminate and make copies.",
            "link": "http://www.byui.edu/web-cameras/copy-spot"
        },
        {
            "name": "Rexburg Temple",
            "code": "REXBURGTEMPLE",
            "lat": 43.814627,
            "lon": -111.781345,
            "img": "http://www2.byui.edu/images/temple.asp",
            "info": "The Rexburg Idaho LDS Temple is located on the corner of 7th South and 2nd East and is viewed from the Thomas E. Ricks Building, Northwest of the temple site.",
            "link": "http://www.byui.edu/web-cameras/rexburg-temple"
        },
        {
            "name": "Rexburg Weather",
            "code": "REXBURGWEATHER",
            "lat": 43.814822,
            "lon": -111.78184,
            "img": "http://www2.byui.edu/images/weather.asp",
            "info": "A webcam that shows the current Rexburg Weather and faces west from the Thomas E. Ricks building.",
            "link": "http://www.byui.edu/web-cameras/weather"
        },
        {
            "name": "Smith Quad",
            "code": "SMITHQUAD",
            "lat": 43.819253,
            "lon": -111.781667,
            "img": "http://www2.byui.edu/images/smithQuad.asp",
            "info": "The Smith Quad is viewed from the Joseph Fielding Smith Building.",
            "link": "http://www.byui.edu/web-cameras/smith-quad"
        },
        {
            "name": "Spori Quad",
            "code": "SPORIQUAD",
            "lat": 43.81973378394156,
            "lon": -111.7824150999552,
            "img": "http://www2.byui.edu/images/spori.asp",
            "info": "The Spori Quad is viewed from the north side of the David O. McKay Library and provides an excellent view of the north end of campus.",
            "link": "http://www.byui.edu/web-cameras/spori-quad"
        },
        {
            "name": "Stadium",
            "code": "STADIUM",
            "lat": 43.82103156751973,
            "lon": -111.7862200509411,
            "img": "http://www2.byui.edu/images/stadium.asp",
            "info": "Stadium Field is viewed from the sport box.",
            "link": "http://www.byui.edu/web-cameras/stadium"
        },
        {
            "name": "Taylor Quad",
            "code": "TAYLORQUAD",
            "lat": 43.81806378968752,
            "lon": -111.7826748410001,
            "img": "http://www2.byui.edu/images/taylorQuad.asp",
            "info": "The Taylor Quad is viewed from the third floor of the Manwaring Center looking south.",
            "link": "http://www.byui.edu/web-cameras/taylor-quad"
        },
        {
            "name": "Testing Center",
            "code": "TESTINGCENTER",
            "lat": 43.818364,
            "lon": -111.783068,
            "img": "http://www2.byui.edu/images/testingCenter.asp",
            "info": "The Testing Center is located on the first floor of the Manwaring Student Center.",
            "link": "http://www.byui.edu/web-cameras/testing-center"
        },
        {
            "name": "Thomas E. Ricks Gardens",
            "code": "RICKSGARDENS",
            "lat": 43.815641,
            "lon": -111.780212,
            "img": "http://www2.byui.edu/images/gardens.asp",
            "info": "The Thomas E. Ricks Gardens are located between the Thomas E. Ricks building and the Taylor Chapel (top right).",
            "link": "http://www.byui.edu/web-cameras/ricks-gardens"
        }
    ],
    [
        {
            "name": "Blue Phone 1",
            "info": "South of the stadium seating exit ramp.",
            "lon": "-111.7860437712944",
            "lat": "43.82067026703935",
            "code": "BLUEPHONE1"
        },
        {
            "name": "Blue Phone 2",
            "info": "The middle East side of the south court off the second floor.",
            "lon": "-111.7836773253761",
            "lat": "43.82101576504834",
            "code": "BLUEPHONE2"
        },
        {
            "name": "Blue Phone 3",
            "info": "Outside the South exit to the Kirkham building. Across from the Clarke loading dock.",
            "lon": "-111.7813631389139",
            "lat": "43.82076220300919",
            "code": "BLUEPHONE3"
        },
        {
            "name": "Blue Phone 4",
            "info": "Out side the north west entrance to the Hart.",
            "lon": "-111.7861099613945",
            "lat": "43.81980656732637",
            "code": "BLUEPHONE4"
        },
        {
            "name": "Blue Phone 5",
            "info": "East of the racket ball courts.",
            "lon": "-111.7856933151403",
            "lat": "43.81923916104421",
            "code": "BLUEPHONE5"
        },
        {
            "name": "Blue Phone 6",
            "info": "Just East of the North exit of the Library.",
            "lon": "-111.7822230870977",
            "lat": "43.81975159410132",
            "code": "BLUEPHONE6"
        },
        {
            "name": "Blue Phone 7",
            "info": "North side of the ampitheater.",
            "lon": "-111.7827755533262",
            "lat": "43.81936485163117",
            "code": "BLUEPHONE7"
        },
        {
            "name": "Blue Phone 8",
            "info": "South end of Kerr Hall toward the parking lot.",
            "lon": "-111.7798527949539",
            "lat": "43.8189509131034",
            "code": "BLUEPHONE8"
        },
        {
            "name": "Blue Phone 9",
            "info": "North West of the Kimball building.",
            "lon": "-111.7816978578465",
            "lat": "43.81775142525281",
            "code": "BLUEPHONE9"
        },
        {
            "name": "Blue Phone 10",
            "info": "Outside of the Southwest exit on the East wall.",
            "lon": "-111.7827733548307",
            "lat": "43.81668511766503",
            "code": "BLUEPHONE10"
        },
        {
            "name": "Blue Phone 11",
            "info": "Southeast of the building. At the crosswalk.",
            "lon": "-111.781007981703",
            "lat": "43.81654102554352",
            "code": "BLUEPHONE11"
        },
        {
            "name": "Blue Phone 12",
            "info": "Outside the West side of the Student Health Center, under the canopy.",
            "lon": "-111.7795055713482",
            "lat": "43.81670890539991",
            "code": "BLUEPHONE12"
        },
        {
            "name": "Blue Phone 13",
            "info": "On the North loading dock of the Facilities building.",
            "lon": "-111.7860666549407",
            "lat": "43.81635760295475",
            "code": "BLUEPHONE13"
        },
        {
            "name": "Blue Phone 14",
            "info": "Outside of the North exit to the older West wing of the Benson Building.",
            "lon": "-111.7832971563749",
            "lat": "43.81603497215789",
            "code": "BLUEPHONE14"
        },
        {
            "name": "Blue Phone 15",
            "info": "Center of the East West walkway.",
            "lon": "-111.7814352654978",
            "lat": "43.81598278124803",
            "code": "BLUEPHONE15"
        },
        {
            "name": "Blue Phone 16",
            "info": "North end of the gardens near the Ricks building.",
            "lon": "-111.7814693996134",
            "lat": "43.81507141105499",
            "code": "BLUEPHONE16"
        },
        {
            "name": "Blue Phone 17",
            "info": "Off the Southeast corner of the Ricks Building.",
            "lon": "-111.7806282786734",
            "lat": "43.8146527114611",
            "code": "BLUEPHONE17"
        },
        {
            "name": "Blue Phone 18",
            "info": "Off the Southwest corner of the Ricks Building.",
            "lon": "-111.782339393881",
            "lat": "43.81467807094403",
            "code": "BLUEPHONE18"
        },
        {
            "name": "Blue Phone 19",
            "info": "In the parking lot. Where the Hinckley &amp; Ricks lots come together.",
            "lon": "-111.7795266795374",
            "lat": "43.81521436063625",
            "code": "BLUEPHONE19"
        },
        {
            "name": "Blue Phone 20",
            "info": "North end of the parking lot.",
            "lon": "-111.7804086581268",
            "lat": "43.8131089935198",
            "code": "BLUEPHONE20"
        },
        {
            "name": "Blue Phone 21",
            "info": "South end of the parking lot.",
            "lon": "-111.7804226370761",
            "lat": "43.81166513917093",
            "code": "BLUEPHONE21"
        },
        {
            "name": "Blue Phone 22",
            "info": "Between the playing fields towards the parking lot.",
            "lon": "-111.7844728078592",
            "lat": "43.81003883360128",
            "code": "BLUEPHONE22"
        },
        {
            "name": "Blue Phone 23",
            "info": "Between the two playing fields towards the upper fields.",
            "lon": "-111.7855500783114",
            "lat": "43.81037337032097",
            "code": "BLUEPHONE23"
        }
    ]
]